{
  "cities": [
    {
      "cityName": "Lisbon",
      "country": "Portugal",
      "emoji": "ðŸ‡µðŸ‡¹",
      "date": "2027-10-31T15:59:59.138Z",
      "notes": "My favorite city so far!",
      "position": {
        "lat": 38.727881642324164,
        "lng": -9.140900099907554
      },
      "id": "73930385"
    },
    {
      "cityName": "Madrid",
      "country": "Spain",
      "emoji": "ðŸ‡ªðŸ‡¸",
      "date": "2027-07-15T08:22:53.976Z",
      "notes": "",
      "position": {
        "lat": 40.46635901755316,
        "lng": -3.7133789062500004
      },
      "id": "17806751"
    },
    {
      "id": "1765423354609",
      "cityName": "Khan Yunis",
      "country": "Palestine, State of",
      "emoji": "ðŸ‡µðŸ‡¸",
      "date": "2025-12-11T03:22:22.000Z",
      "notes": "",
      "position": {
        "lat": "31.34355027591854",
        "lng": "34.268417358398445"
      }
    },
    {
      "id": "1765423527684",
      "cityName": "Assiut",
      "country": "Egypt",
      "emoji": "ðŸ‡ªðŸ‡¬",
      "date": "2025-12-11T03:25:20.591Z",
      "notes": "here ",
      "position": {
        "lat": "27.177208594969155",
        "lng": "31.181602478027347"
      }
    },
    {
      "id": "1765428301923",
      "cityName": "Alquines",
      "country": "France",
      "emoji": "ðŸ‡«ðŸ‡·",
      "date": "2025-12-11T04:45:00.751Z",
      "notes": "",
      "position": {
        "lat": "50.74604895533155",
        "lng": "2.0159912109375004"
      }
    }
  ]
}